{"São Roque, SP, Brasil":{"Name":"São Roque, SP, Brasil","Endereco":"São Roque, SP, Brasil","Latitude":-23.5298156,"Longitude":-47.137400199999988,"Period":{"From":"07:00:00","To":"23:00:00","Descarga":120,"Hours":16}},"Campinas, SP, Brasil":{"Name":"Campinas, SP, Brasil","Endereco":"Campinas, SP, Brasil","Latitude":-22.9098833,"Longitude":-47.0625812,"Period":{"From":"11:00:00","To":"16:00:00","Descarga":120,"Hours":5}},"Mogi das Cruzes - SP, Brasil":{"Name":"Mogi das Cruzes - SP, Brasil","Endereco":"Mogi das Cruzes - SP, Brasil","Latitude":-23.5213379,"Longitude":-46.185866999999988,"Period":{"From":"14:00:00","To":"21:00:00","Descarga":90,"Hours":7}},"Americana - SP, Brasil":{"Name":"Americana - SP, Brasil","Endereco":"Americana - SP, Brasil","Latitude":-22.7378203,"Longitude":-47.3337008,"Period":{"From":"12:00:00","To":"18:00:00","Descarga":120,"Hours":6}},"Praia Grande, SP, Brasil":{"Name":"Praia Grande, SP, Brasil","Endereco":"Praia Grande, SP, Brasil","Latitude":-24.0088421,"Longitude":-46.4124616,"Period":{"From":"08:00:00","To":"14:00:00","Descarga":90,"Hours":6}},"Rua Vergueiro, 235/249 - Liberdade, São Paulo - SP":{"Name":"Rua Vergueiro, 235/249 - Liberdade, São Paulo - SP","Endereco":"Rua Vergueiro, 235/249 - Liberdade, São Paulo - SP","Latitude":-23.5641526,"Longitude":-46.638146200000008,"Period":{"From":"08:00:00","To":"20:00:00","Descarga":0,"Hours":12}},"Jundiaí, SP, Brasil":{"Name":"Jundiaí, SP, Brasil","Endereco":"Jundiaí, SP, Brasil","Latitude":-23.1857076,"Longitude":-46.8978057,"Period":{"From":"15:00:00","To":"22:00:00","Descarga":90,"Hours":7}},"Campos do Jordão, SP, Brasil":{"Name":"Campos do Jordão, SP, Brasil","Endereco":"Campos do Jordão, SP, Brasil","Latitude":-22.7428673,"Longitude":-45.5963557,"Period":{"From":"15:00:00","To":"21:00:00","Descarga":50,"Hours":6}},"Olímpia, SP, Brasil":{"Name":"Olímpia, SP, Brasil","Endereco":"Olímpia, SP, Brasil","Latitude":-20.7371116,"Longitude":-48.9110606,"Period":{"From":"08:00:00","To":"14:00:00","Descarga":90,"Hours":6}},"Bertioga, SP, Brasil":{"Name":"Bertioga, SP, Brasil","Endereco":"Bertioga, SP, Brasil","Latitude":-23.8064303,"Longitude":-46.0589521,"Period":{"From":"08:00:00","To":"23:00:00","Descarga":150,"Hours":15}}}