{"Av. do Café, 298 - Jabaquara":{"Name":"Av. do Café, 298 - Jabaquara","Endereco":"Av. do Café, 298 - Jabaquara","Latitude":-23.6345815,"Longitude":-46.6393473,"Period":{"From":"09:00:00","To":"11:00:00","Descarga":40,"Hours":2}},"R. Dr. Antônio Bento, 393 - Santo Amaro":{"Name":"R. Dr. Antônio Bento, 393 - Santo Amaro","Endereco":"R. Dr. Antônio Bento, 393 - Santo Amaro","Latitude":-23.6471745,"Longitude":-46.7036787,"Period":{"From":"09:00:00","To":"12:00:00","Descarga":10,"Hours":3}},"Rua Henrique Schaumann, 80/124 - Cerqueira César, São Paulo - SP":{"Name":"Rua Henrique Schaumann, 80/124 - Cerqueira César, São Paulo - SP","Endereco":"Rua Henrique Schaumann, 80/124 - Cerqueira César, São Paulo - SP","Latitude":-23.563241,"Longitude":-46.6779988,"Period":{"From":"09:00:00","To":"23:00:00","Descarga":60,"Hours":14}},"Av. Eng. Eusébio Stevaux, 823 - Santo Amaro":{"Name":"Av. Eng. Eusébio Stevaux, 823 - Santo Amaro","Endereco":"Av. Eng. Eusébio Stevaux, 823 - Santo Amaro","Latitude":-23.669369,"Longitude":-46.700551,"Period":{"From":"09:00:00","To":"20:00:00","Descarga":0,"Hours":11}},"Av. José Maria Whitaker, 81 - Jardim Paulista, São Paulo - SP":{"Name":"Av. José Maria Whitaker, 81 - Jardim Paulista, São Paulo - SP","Endereco":"Av. José Maria Whitaker, 81 - Jardim Paulista, São Paulo - SP","Latitude":-23.6021924,"Longitude":-46.6503355,"Period":{"From":"09:00:00","To":"21:00:00","Descarga":45,"Hours":12}},"Av. Roque Petroni Júnior, 1089 - Chácara Santo Antônio (Zona Sul), São Paulo - SP":{"Name":"Av. Roque Petroni Júnior, 1089 - Chácara Santo Antônio (Zona Sul), São Paulo - SP","Endereco":"Av. Roque Petroni Júnior, 1089 - Chácara Santo Antônio (Zona Sul), São Paulo - SP","Latitude":-23.622708,"Longitude":-46.698664,"Period":{"From":"09:00:00","To":"21:00:00","Descarga":80,"Hours":12}},"Av. Frei Orestes Girardi, 3549 - Capivari, Campos do Jordão - SP":{"Name":"Av. Frei Orestes Girardi, 3549 - Capivari, Campos do Jordão - SP","Endereco":"Av. Frei Orestes Girardi, 3549 - Capivari, Campos do Jordão - SP","Latitude":-22.7252027,"Longitude":-45.5789128,"Period":{"From":"09:00:00","To":"17:00:00","Descarga":20,"Hours":8}},"R. Cel. Luís Americano, 130 - Tatuapé":{"Name":"R. Cel. Luís Americano, 130 - Tatuapé","Endereco":"R. Cel. Luís Americano, 130 - Tatuapé","Latitude":-23.541021,"Longitude":-46.5749051,"Period":{"From":"15:00:00","To":"19:00:00","Descarga":30,"Hours":4}},"Rua Salvador Branco de Andrade, 182 - Jardim Sao Miguel":{"Name":"Rua Salvador Branco de Andrade, 182 - Jardim Sao Miguel","Endereco":"Rua Salvador Branco de Andrade, 182 - Jardim Sao Miguel","Latitude":-23.6126595,"Longitude":-46.7722706,"Period":{"From":"09:00:00","To":"18:00:00","Descarga":60,"Hours":9}},"Av. Brigadeiro Luís Antônio, 3477/3481 - Jardim Paulista, São Paulo - SP":{"Name":"Av. Brigadeiro Luís Antônio, 3477/3481 - Jardim Paulista, São Paulo - SP","Endereco":"Av. Brigadeiro Luís Antônio, 3477/3481 - Jardim Paulista, São Paulo - SP","Latitude":-23.5755497,"Longitude":-46.6573833,"Period":{"From":"09:00:00","To":"19:00:00","Descarga":90,"Hours":10}},"R. Voluntários da Pátria, 3167 - Santana":{"Name":"R. Voluntários da Pátria, 3167 - Santana","Endereco":"R. Voluntários da Pátria, 3167 - Santana","Latitude":-23.4921769,"Longitude":-46.6262641,"Period":{"From":"10:00:00","To":"19:00:00","Descarga":20,"Hours":9}},"Av. Eliseu de Almeida, 2700 - Jardim Peri Peri, São Paulo - SP":{"Name":"Av. Eliseu de Almeida, 2700 - Jardim Peri Peri, São Paulo - SP","Endereco":"Av. Eliseu de Almeida, 2700 - Jardim Peri Peri, São Paulo - SP","Latitude":-23.5887303,"Longitude":-46.7335135,"Period":{"From":"09:00:00","To":"18:00:00","Descarga":20,"Hours":9}},"R. Augusta, 1856 - Cerqueira César, São Paulo - SP":{"Name":"R. Augusta, 1856 - Cerqueira César, São Paulo - SP","Endereco":"R. Augusta, 1856 - Cerqueira César, São Paulo - SP","Latitude":-23.558783,"Longitude":-46.6613023,"Period":{"From":"08:00:00","To":"23:00:00","Descarga":30,"Hours":15}},"R. Dante Batiston, 248 - Centro":{"Name":"R. Dante Batiston, 248 - Centro","Endereco":"R. Dante Batiston, 248 - Centro","Latitude":-23.5323057,"Longitude":-46.7778104,"Period":{"From":"12:00:00","To":"15:00:00","Descarga":50,"Hours":3}},"Av. Vital Brasil, 1256 - Butantã, São Paulo - SP":{"Name":"Av. Vital Brasil, 1256 - Butantã, São Paulo - SP","Endereco":"Av. Vital Brasil, 1256 - Butantã, São Paulo - SP","Latitude":-23.568802,"Longitude":-46.7151351,"Period":{"From":"09:00:00","To":"16:00:00","Descarga":40,"Hours":7}},"R. Pamplona, 734 - Jardim Paulista, São Paulo - SP":{"Name":"R. Pamplona, 734 - Jardim Paulista, São Paulo - SP","Endereco":"R. Pamplona, 734 - Jardim Paulista, São Paulo - SP","Latitude":-23.5643746,"Longitude":-46.654667,"Period":{"From":"09:00:00","To":"19:00:00","Descarga":0,"Hours":10}},"Rua do Orfanato, 316 - Vila Prudente":{"Name":"Rua do Orfanato, 316 - Vila Prudente","Endereco":"Rua do Orfanato, 316 - Vila Prudente","Latitude":-23.5803285,"Longitude":-46.5822919,"Period":{"From":"09:00:00","To":"17:00:00","Descarga":20,"Hours":8}},"Av. das Nações Unidas, 12555 - Pinheiros, São Paulo - SP":{"Name":"Av. das Nações Unidas, 12555 - Pinheiros, São Paulo - SP","Endereco":"Av. das Nações Unidas, 12555 - Pinheiros, São Paulo - SP","Latitude":-23.5730362,"Longitude":-46.6988,"Period":{"From":"06:00:00","To":"21:00:00","Descarga":95,"Hours":15}}}