{"R. João Batista de Oliveira, 47 - Centro, Taboão da Serra - SP":{"Name":"R. João Batista de Oliveira, 47 - Centro, Taboão da Serra - SP","Endereco":"R. João Batista de Oliveira, 47 - Centro, Taboão da Serra - SP","Latitude":-23.6096203,"Longitude":-46.7529637,"Period":{"From":"09:00:00","To":"22:00:00","Descarga":320,"Hours":13}},"Mogi das Cruzes - SP, Brasil":{"Name":"Mogi das Cruzes - SP, Brasil","Endereco":"Mogi das Cruzes - SP, Brasil","Latitude":-23.5213379,"Longitude":-46.185866999999988,"Period":{"From":"14:00:00","To":"21:00:00","Descarga":90,"Hours":7}},"Av. Guido Caloi, 25 - Jardim São Luís, São Paulo - SP":{"Name":"Av. Guido Caloi, 25 - Jardim São Luís, São Paulo - SP","Endereco":"Av. Guido Caloi, 25 - Jardim São Luís, São Paulo - SP","Latitude":-23.6470346,"Longitude":-46.7290758,"Period":{"From":"09:00:00","To":"22:00:00","Descarga":200,"Hours":13}},"Av. Dr. Ricardo Jafet, 1501 - Vila Mariana, São Paulo - SP":{"Name":"Av. Dr. Ricardo Jafet, 1501 - Vila Mariana, São Paulo - SP","Endereco":"Av. Dr. Ricardo Jafet, 1501 - Vila Mariana, São Paulo - SP","Latitude":-23.5897043,"Longitude":-46.6199968,"Period":{"From":"09:00:00","To":"22:00:00","Descarga":300,"Hours":13}},"Americana - SP, Brasil":{"Name":"Americana - SP, Brasil","Endereco":"Americana - SP, Brasil","Latitude":-22.7378203,"Longitude":-47.3337008,"Period":{"From":"12:00:00","To":"18:00:00","Descarga":120,"Hours":6}},"Rua Três Rios, 282 - Bom Retiro, São Paulo - SP":{"Name":"Rua Três Rios, 282 - Bom Retiro, São Paulo - SP","Endereco":"Rua Três Rios, 282 - Bom Retiro, São Paulo - SP","Latitude":-23.5291251,"Longitude":-46.6369346,"Period":{"From":"09:00:00","To":"22:00:00","Descarga":500,"Hours":13}},"R. Nossa Sra. das Mercês, 29 - Vila das Merces, São Paulo - SP":{"Name":"R. Nossa Sra. das Mercês, 29 - Vila das Merces, São Paulo - SP","Endereco":"R. Nossa Sra. das Mercês, 29 - Vila das Merces, São Paulo - SP","Latitude":-23.6179022,"Longitude":-46.6102096,"Period":{"From":"09:00:00","To":"22:00:00","Descarga":140,"Hours":13}},"Av. Sen. Teotônio Vilela, 2926 - Jardim Iporanga, São Paulo - SP":{"Name":"Av. Sen. Teotônio Vilela, 2926 - Jardim Iporanga, São Paulo - SP","Endereco":"Av. Sen. Teotônio Vilela, 2926 - Jardim Iporanga, São Paulo - SP","Latitude":-23.7262849,"Longitude":-46.7008721,"Period":{"From":"09:00:00","To":"22:00:00","Descarga":120,"Hours":13}},"Praia Grande, SP, Brasil":{"Name":"Praia Grande, SP, Brasil","Endereco":"Praia Grande, SP, Brasil","Latitude":-24.0088421,"Longitude":-46.4124616,"Period":{"From":"08:00:00","To":"14:00:00","Descarga":90,"Hours":6}},"Bertioga, SP, Brasil":{"Name":"Bertioga, SP, Brasil","Endereco":"Bertioga, SP, Brasil","Latitude":-23.8064303,"Longitude":-46.0589521,"Period":{"From":"08:00:00","To":"23:00:00","Descarga":150,"Hours":15}},"Campos do Jordão, SP, Brasil":{"Name":"Campos do Jordão, SP, Brasil","Endereco":"Campos do Jordão, SP, Brasil","Latitude":-22.7428673,"Longitude":-45.5963557,"Period":{"From":"15:00:00","To":"21:00:00","Descarga":50,"Hours":6}},"Olímpia, SP, Brasil":{"Name":"Olímpia, SP, Brasil","Endereco":"Olímpia, SP, Brasil","Latitude":-20.7371116,"Longitude":-48.9110606,"Period":{"From":"08:00:00","To":"14:00:00","Descarga":90,"Hours":6}},"Av. das Nações Unidas, 16741 - Santo Amaro":{"Name":"Av. das Nações Unidas, 16741 - Santo Amaro","Endereco":"Av. das Nações Unidas, 16741 - Santo Amaro","Latitude":-23.6371677,"Longitude":-46.7200893,"Period":{"From":"06:00:00","To":"23:00:00","Descarga":0,"Hours":17}},"Rua Vergueiro, 235/249 - Liberdade, São Paulo - SP":{"Name":"Rua Vergueiro, 235/249 - Liberdade, São Paulo - SP","Endereco":"Rua Vergueiro, 235/249 - Liberdade, São Paulo - SP","Latitude":-23.5641526,"Longitude":-46.638146200000008,"Period":{"From":"08:00:00","To":"23:00:00","Descarga":0,"Hours":15}},"São Roque, SP, Brasil":{"Name":"São Roque, SP, Brasil","Endereco":"São Roque, SP, Brasil","Latitude":-23.5298156,"Longitude":-47.137400199999988,"Period":{"From":"07:00:00","To":"23:00:00","Descarga":120,"Hours":16}},"Av. Guarapiranga, 752 - Socorro, São Paulo - SP":{"Name":"Av. Guarapiranga, 752 - Socorro, São Paulo - SP","Endereco":"Av. Guarapiranga, 752 - Socorro, São Paulo - SP","Latitude":-23.6664146,"Longitude":-46.7198587,"Period":{"From":"09:00:00","To":"22:00:00","Descarga":180,"Hours":13}},"Avenida Washignton Luís, 5859 - Jd. Aeroporto, São Paulo - SP":{"Name":"Avenida Washignton Luís, 5859 - Jd. Aeroporto, São Paulo - SP","Endereco":"Avenida Washignton Luís, 5859 - Jd. Aeroporto, São Paulo - SP","Latitude":-23.6286463,"Longitude":-46.6676672,"Period":{"From":"09:00:00","To":"22:00:00","Descarga":360,"Hours":13}},"Jundiaí, SP, Brasil":{"Name":"Jundiaí, SP, Brasil","Endereco":"Jundiaí, SP, Brasil","Latitude":-23.1857076,"Longitude":-46.8978057,"Period":{"From":"15:00:00","To":"22:00:00","Descarga":90,"Hours":7}},"R. João Cachoeira, 899 - Itaim Bibi, São Paulo - SP":{"Name":"R. João Cachoeira, 899 - Itaim Bibi, São Paulo - SP","Endereco":"R. João Cachoeira, 899 - Itaim Bibi, São Paulo - SP","Latitude":-23.5877702,"Longitude":-46.6761173,"Period":{"From":"06:00:00","To":"22:00:00","Descarga":150,"Hours":16}},"Estrada Velha do M’Boi Mirim, 4374 - Jardim Angela, São Paulo - SP":{"Name":"Estrada Velha do M’Boi Mirim, 4374 - Jardim Angela, São Paulo - SP","Endereco":"Estrada Velha do M’Boi Mirim, 4374 - Jardim Angela, São Paulo - SP","Latitude":-23.6847615,"Longitude":-46.7703387,"Period":{"From":"09:00:00","To":"22:00:00","Descarga":160,"Hours":13}},"Campinas, SP, Brasil":{"Name":"Campinas, SP, Brasil","Endereco":"Campinas, SP, Brasil","Latitude":-22.9098833,"Longitude":-47.0625812,"Period":{"From":"11:00:00","To":"16:00:00","Descarga":120,"Hours":5}},"Av. Brigadeiro Luís Antônio, 2013 - Bela Vista, São Paulo - SP":{"Name":"Av. Brigadeiro Luís Antônio, 2013 - Bela Vista, São Paulo - SP","Endereco":"Av. Brigadeiro Luís Antônio, 2013 - Bela Vista, São Paulo - SP","Latitude":-23.5662838,"Longitude":-46.647230699999987,"Period":{"From":"09:00:00","To":"22:00:00","Descarga":200,"Hours":13}}}