{"R. João Cachoeira, 899 - Itaim Bibi, São Paulo - SP":{"Name":"Extra - Itaim Bibi","Endereco":"R. João Cachoeira, 899 - Itaim Bibi, São Paulo - SP","Latitude":-23.5877702,"Longitude":-46.6761173,"Period":{"From":"06:00:00","To":"22:00:00","Descarga":60,"Hours":16}},"Av. Dr. Ricardo Jafet, 1501 - Vila Mariana, São Paulo - SP":{"Name":"Extra - Ricardo Jafet","Endereco":"Av. Dr. Ricardo Jafet, 1501 - Vila Mariana, São Paulo - SP","Latitude":-23.5897043,"Longitude":-46.6199968,"Period":{"From":"09:00:00","To":"22:00:00","Descarga":60,"Hours":13}},"Av. Guido Caloi, 25 - Jardim São Luís, São Paulo - SP":{"Name":"Extra João Dias","Endereco":"Av. Guido Caloi, 25 - Jardim São Luís, São Paulo - SP","Latitude":-23.6470346,"Longitude":-46.7290758,"Period":{"From":"09:00:00","To":"22:00:00","Descarga":60,"Hours":13}},"Av. das Nações Unidas, 16741 - Santo Amaro":{"Name":"Extra - Morumbi","Endereco":"Av. das Nações Unidas, 16741 - Santo Amaro","Latitude":-23.6371677,"Longitude":-46.7200893,"Period":{"From":"06:00:00","To":"07:00:00","Descarga":0,"Hours":1}},"R. Nossa Sra. das Mercês, 29 - Vila das Merces, São Paulo - SP":{"Name":"Extra","Endereco":"R. Nossa Sra. das Mercês, 29 - Vila das Merces, São Paulo - SP","Latitude":-23.6179022,"Longitude":-46.6102096,"Period":{"From":"09:00:00","To":"22:00:00","Descarga":60,"Hours":13}},"Avenida Washignton Luís, 5859 - Jd. Aeroporto, São Paulo - SP":{"Name":"Extra Aeroporto","Endereco":"Avenida Washignton Luís, 5859 - Jd. Aeroporto, São Paulo - SP","Latitude":-23.6286463,"Longitude":-46.6676672,"Period":{"From":"09:00:00","To":"22:00:00","Descarga":60,"Hours":13}},"Rua Três Rios, 282 - Bom Retiro, São Paulo - SP":{"Name":"Extra","Endereco":"Rua Três Rios, 282 - Bom Retiro, São Paulo - SP","Latitude":-23.5291251,"Longitude":-46.6369346,"Period":{"From":"09:00:00","To":"22:00:00","Descarga":60,"Hours":13}},"Av. Brigadeiro Luís Antônio, 2013 - Bela Vista, São Paulo - SP":{"Name":"Extra Hipermercado","Endereco":"Av. Brigadeiro Luís Antônio, 2013 - Bela Vista, São Paulo - SP","Latitude":-23.5662838,"Longitude":-46.647230699999987,"Period":{"From":"09:00:00","To":"22:00:00","Descarga":60,"Hours":13}},"R. João Batista de Oliveira, 47 - Centro, Taboão da Serra - SP":{"Name":"Extra Hipermercado","Endereco":"R. João Batista de Oliveira, 47 - Centro, Taboão da Serra - SP","Latitude":-23.6096203,"Longitude":-46.7529637,"Period":{"From":"09:00:00","To":"22:00:00","Descarga":60,"Hours":13}},"Estrada Velha do M'Boi Mirim, 4374 - Jardim Angela, São Paulo - SP":{"Name":"Extra - Jardim Angela","Endereco":"Estrada Velha do M'Boi Mirim, 4374 - Jardim Angela, São Paulo - SP","Latitude":-23.6847615,"Longitude":-46.7703387,"Period":{"From":"09:00:00","To":"22:00:00","Descarga":60,"Hours":13}},"Av. Sen. Teotônio Vilela, 2926 - Jardim Iporanga, São Paulo - SP":{"Name":"Extra Hiper","Endereco":"Av. Sen. Teotônio Vilela, 2926 - Jardim Iporanga, São Paulo - SP","Latitude":-23.7262849,"Longitude":-46.7008721,"Period":{"From":"09:00:00","To":"22:00:00","Descarga":60,"Hours":13}},"Av. Guarapiranga, 752 - Socorro, São Paulo - SP":{"Name":"Extra Hiper Guarapiranga","Endereco":"Av. Guarapiranga, 752 - Socorro, São Paulo - SP","Latitude":-23.6664146,"Longitude":-46.7198587,"Period":{"From":"09:00:00","To":"22:00:00","Descarga":60,"Hours":13}}}