{"Av. Dr. Ricardo Jafet, 1501 - Vila Mariana, São Paulo - SP":{"Name":"Extra - Ricardo Jafet","Endereco":"Av. Dr. Ricardo Jafet, 1501 - Vila Mariana, São Paulo - SP","Latitude":-23.5897043,"Longitude":-46.6199968,"Period":{"From":"09:00:00","To":"22:00:00","Descarga":60,"Hours":13}},"Rua Três Rios, 282 - Bom Retiro, São Paulo - SP":{"Name":"Extra","Endereco":"Rua Três Rios, 282 - Bom Retiro, São Paulo - SP","Latitude":-23.5292784,"Longitude":-46.6368418,"Period":{"From":"09:00:00","To":"22:00:00","Descarga":60,"Hours":13}},"Av. Brigadeiro Luís Antônio, 2013 - Bela Vista, São Paulo - SP":{"Name":"Extra Hipermercado","Endereco":"Av. Brigadeiro Luís Antônio, 2013 - Bela Vista, São Paulo - SP","Latitude":-23.5659357,"Longitude":-46.647962500000013,"Period":{"From":"09:00:00","To":"22:00:00","Descarga":60,"Hours":13}},"R. João Batista de Oliveira, 47 - Centro, Taboão da Serra - SP":{"Name":"Extra Hipermercado","Endereco":"R. João Batista de Oliveira, 47 - Centro, Taboão da Serra - SP","Latitude":-23.6092215,"Longitude":-46.7527367,"Period":{"From":"09:00:00","To":"22:00:00","Descarga":60,"Hours":13}},"R. Nossa Sra. das Mercês, 29 - Vila das Merces, São Paulo - SP":{"Name":"Extra","Endereco":"R. Nossa Sra. das Mercês, 29 - Vila das Merces, São Paulo - SP","Latitude":-23.6179022,"Longitude":-46.6102096,"Period":{"From":"09:00:00","To":"22:00:00","Descarga":60,"Hours":13}},"Av. Sen. Teotônio Vilela, 2926 - Jardim Iporanga, São Paulo - SP":{"Name":"Extra Hiper","Endereco":"Av. Sen. Teotônio Vilela, 2926 - Jardim Iporanga, São Paulo - SP","Latitude":-23.726241,"Longitude":-46.700789099999987,"Period":{"From":"09:00:00","To":"22:00:00","Descarga":60,"Hours":13}},"Estrada Velha do M'Boi Mirim, 4374 - Jardim Angela, São Paulo - SP":{"Name":"Extra - Jardim Angela","Endereco":"Estrada Velha do M'Boi Mirim, 4374 - Jardim Angela, São Paulo - SP","Latitude":-23.6847615,"Longitude":-46.7703387,"Period":{"From":"09:00:00","To":"22:00:00","Descarga":60,"Hours":13}},"Avenida Washignton Luís, 5859 - Jd. Aeroporto, São Paulo - SP":{"Name":"Extra Aeroporto","Endereco":"Avenida Washignton Luís, 5859 - Jd. Aeroporto, São Paulo - SP","Latitude":-23.6285483,"Longitude":-46.6675152,"Period":{"From":"09:00:00","To":"22:00:00","Descarga":60,"Hours":13}},"Av. Guarapiranga, 752 - Socorro, São Paulo - SP":{"Name":"Extra Hiper Guarapiranga","Endereco":"Av. Guarapiranga, 752 - Socorro, São Paulo - SP","Latitude":-23.665996,"Longitude":-46.7193228,"Period":{"From":"09:00:00","To":"22:00:00","Descarga":60,"Hours":13}},"R. João Cachoeira, 899 - Itaim Bibi, São Paulo - SP":{"Name":"Extra - Itaim Bibi","Endereco":"R. João Cachoeira, 899 - Itaim Bibi, São Paulo - SP","Latitude":-23.587866,"Longitude":-46.6762159,"Period":{"From":"06:00:00","To":"22:00:00","Descarga":60,"Hours":16}},"Av. Guido Caloi, 25 - Jardim São Luís, São Paulo - SP":{"Name":"Extra João Dias","Endereco":"Av. Guido Caloi, 25 - Jardim São Luís, São Paulo - SP","Latitude":-23.6462222,"Longitude":-46.729126699999988,"Period":{"From":"09:00:00","To":"22:00:00","Descarga":60,"Hours":13}},"Av. das Nações Unidas":{"Name":"Extra - Morumbi","Endereco":"Av. das Nações Unidas","Latitude":-23.6077583,"Longitude":-46.6973162,"Period":{"From":"736654.06:00:00","To":"00:00:00","Descarga":0,"Hours":-6}}}