{"Av. Frei Orestes Girardi, 3549 - Capivari, Campos do Jordão - SP":{"Name":"Senac Campos do Jordão","Endereco":"Av. Frei Orestes Girardi, 3549 - Capivari, Campos do Jordão - SP","Latitude":-22.7252027,"Longitude":-45.5789128,"Period":{"From":"09:00:00","To":"17:00:00","Descarga":20,"Hours":8}},"R. do Horto, 931 - Horto Florestal, São Paulo - SP":{"Name":"Parque Estadual Alberto Löfgren","Endereco":"R. do Horto, 931 - Horto Florestal, São Paulo - SP","Latitude":-23.4582393,"Longitude":-46.6343429,"Period":{"From":"06:00:00","To":"18:00:00","Descarga":10,"Hours":12}},"Av. Roque Petroni Júnior, 1089 - Chácara Santo Antônio (Zona Sul), São Paulo - SP":{"Name":"McDonald's Santo Antônio","Endereco":"Av. Roque Petroni Júnior, 1089 - Chácara Santo Antônio (Zona Sul), São Paulo - SP","Latitude":-23.622708,"Longitude":-46.698664,"Period":{"From":"09:00:00","To":"23:00:00","Descarga":40,"Hours":14}},"Rua Vergueiro, 235/249 - Liberdade, São Paulo - SP":{"Name":"Uninove Vergueiro","Endereco":"Rua Vergueiro, 235/249 - Liberdade, São Paulo - SP","Latitude":-23.5641526,"Longitude":-46.638146200000008,"Period":{"From":"736654.08:00:00","To":"00:00:00","Descarga":0,"Hours":-8}},"Av. das Nações Unidas":{"Name":"Extra Morumbi","Endereco":"Av. das Nações Unidas","Latitude":-23.6077583,"Longitude":-46.6973162,"Period":{"From":"736654.06:00:00","To":"00:00:00","Descarga":0,"Hours":-6}},"Av. das Nações Unidas, 16741 - Santo Amaro":{"Name":"Extra Morumbi","Endereco":"Av. das Nações Unidas, 16741 - Santo Amaro","Latitude":-23.626796,"Longitude":-46.7173793,"Period":{"From":"736654.06:00:00","To":"00:00:00","Descarga":0,"Hours":-6}},"Av. Vital Brasil, 1256 - Butantã, São Paulo - SP":{"Name":"McDonald's Vital Brasil","Endereco":"Av. Vital Brasil, 1256 - Butantã, São Paulo - SP","Latitude":-23.5687972,"Longitude":-46.7151232,"Period":{"From":"09:00:00","To":"18:00:00","Descarga":40,"Hours":9}},"R. Voluntários da Pátria, 3167 - Santana":{"Name":"Senac Santana","Endereco":"R. Voluntários da Pátria, 3167 - Santana","Latitude":-23.4922212,"Longitude":-46.6263423,"Period":{"From":"10:00:00","To":"19:00:00","Descarga":20,"Hours":9}},"R. Princesa Isabel - Vila Guiomar, Santo André - SP":{"Name":"Uninove Santo André","Endereco":"R. Princesa Isabel - Vila Guiomar, Santo André - SP","Latitude":-23.6572363,"Longitude":-46.542847599999988,"Period":{"From":"08:00:00","To":"23:00:00","Descarga":90,"Hours":15}},"Rua Três Rios, 282 - Bom Retiro, São Paulo - SP":{"Name":"Extra Bom Retiro","Endereco":"Rua Três Rios, 282 - Bom Retiro, São Paulo - SP","Latitude":-23.5292784,"Longitude":-46.6368418,"Period":{"From":"09:00:00","To":"22:00:00","Descarga":60,"Hours":13}},"Av. Brigadeiro Luís Antônio, 3477/3481 - Jardim Paulista, São Paulo - SP":{"Name":"McDonald's Brigadeiro","Endereco":"Av. Brigadeiro Luís Antônio, 3477/3481 - Jardim Paulista, São Paulo - SP","Latitude":-23.5755497,"Longitude":-46.6573833,"Period":{"From":"09:00:00","To":"19:00:00","Descarga":40,"Hours":10}},"Av. Dr. Ricardo Jafet, 1501 - Vila Mariana, São Paulo - SP":{"Name":"Extra Ricardo Jafet","Endereco":"Av. Dr. Ricardo Jafet, 1501 - Vila Mariana, São Paulo - SP","Latitude":-23.5897043,"Longitude":-46.6199968,"Period":{"From":"09:00:00","To":"22:00:00","Descarga":60,"Hours":13}},"Av. Eliseu de Almeida, 2700 - Jardim Peri Peri, São Paulo - SP":{"Name":"McDonald's Eliseu de Almeida","Endereco":"Av. Eliseu de Almeida, 2700 - Jardim Peri Peri, São Paulo - SP","Latitude":-23.5887583,"Longitude":-46.7335494,"Period":{"From":"09:00:00","To":"18:00:00","Descarga":40,"Hours":9}},"R. Amador Bueno - Santo Amaro, São Paulo - SP":{"Name":"Uninove Santo Amaro","Endereco":"R. Amador Bueno - Santo Amaro, São Paulo - SP","Latitude":-23.6527622,"Longitude":-46.7124,"Period":{"From":"08:00:00","To":"23:00:00","Descarga":90,"Hours":15}},"Av. Brigadeiro Luís Antônio, 2013 - Bela Vista, São Paulo - SP":{"Name":"Extra Bela Vista","Endereco":"Av. Brigadeiro Luís Antônio, 2013 - Bela Vista, São Paulo - SP","Latitude":-23.5659357,"Longitude":-46.647962500000013,"Period":{"From":"09:00:00","To":"22:00:00","Descarga":60,"Hours":13}},"Av. Professor Luiz Ignácio Anhaia Mello, 1363 - Vila Prudente, São Paulo - SP":{"Name":"Uninove Vila Prudente","Endereco":"Av. Professor Luiz Ignácio Anhaia Mello, 1363 - Vila Prudente, São Paulo - SP","Latitude":-23.584254,"Longitude":-46.5807717,"Period":{"From":"08:00:00","To":"23:00:00","Descarga":90,"Hours":15}},"R. Álvares Machado, 48 - Vila Bocaina, Mauá - SP":{"Name":"Uninove Mauá","Endereco":"R. Álvares Machado, 48 - Vila Bocaina, Mauá - SP","Latitude":-23.6697642,"Longitude":-46.4576613,"Period":{"From":"08:00:00","To":"23:00:00","Descarga":90,"Hours":15}},"R. Cel. Luís Americano, 130 - Tatuapé":{"Name":"Senac Tatuapé","Endereco":"R. Cel. Luís Americano, 130 - Tatuapé","Latitude":-23.541426,"Longitude":-46.5746428,"Period":{"From":"15:00:00","To":"19:00:00","Descarga":20,"Hours":4}},"Parque da Independência - s/n - Ipiranga, São Paulo - SP":{"Name":"Museu do Ipiranga","Endereco":"Parque da Independência - s/n - Ipiranga, São Paulo - SP","Latitude":-23.5841506,"Longitude":-46.6098296,"Period":{"From":"09:00:00","To":"17:00:00","Descarga":10,"Hours":8}},"R. Augusta, 1856 - Cerqueira César, São Paulo - SP":{"Name":"McDonald's Augusta","Endereco":"R. Augusta, 1856 - Cerqueira César, São Paulo - SP","Latitude":-23.5587938,"Longitude":-46.6612715,"Period":{"From":"08:00:00","To":"23:00:00","Descarga":40,"Hours":15}},"Av. das Nações Unidas, 12555 - Pinheiros, São Paulo - SP":{"Name":"McDonald's Nações Unidas","Endereco":"Av. das Nações Unidas, 12555 - Pinheiros, São Paulo - SP","Latitude":-23.5730362,"Longitude":-46.6988,"Period":{"From":"06:00:00","To":"21:00:00","Descarga":40,"Hours":15}},"Av. Sen. Teotônio Vilela, 261 - Interlagos, São Paulo - SP":{"Name":"Autódromo de Interlagos","Endereco":"Av. Sen. Teotônio Vilela, 261 - Interlagos, São Paulo - SP","Latitude":-23.7032826,"Longitude":-46.7002859,"Period":{"From":"07:00:00","To":"17:00:00","Descarga":10,"Hours":10}},"Av. Guido Caloi, 25 - Jardim São Luís, São Paulo - SP":{"Name":"Extra João Dias","Endereco":"Av. Guido Caloi, 25 - Jardim São Luís, São Paulo - SP","Latitude":-23.6462222,"Longitude":-46.729126699999988,"Period":{"From":"09:00:00","To":"22:00:00","Descarga":60,"Hours":13}},"Av. Dom Jaime de Barros Câmara, 90 - Planalto, São Bernardo do Campo - SP":{"Name":"Uninove São Bernardo do Campo","Endereco":"Av. Dom Jaime de Barros Câmara, 90 - Planalto, São Bernardo do Campo - SP","Latitude":-23.706806,"Longitude":-46.5637431,"Period":{"From":"08:00:00","To":"23:00:00","Descarga":90,"Hours":15}},"Av. do Café, 298 - Jabaquara":{"Name":"Senac Jabaquara","Endereco":"Av. do Café, 298 - Jabaquara","Latitude":-23.6345554,"Longitude":-46.639369599999988,"Period":{"From":"09:00:00","To":"11:00:00","Descarga":20,"Hours":2}},"Estrada Velha do M'Boi Mirim, 4374 - Jardim Angela, São Paulo - SP":{"Name":"Extra Jardim Angela","Endereco":"Estrada Velha do M'Boi Mirim, 4374 - Jardim Angela, São Paulo - SP","Latitude":-23.6847615,"Longitude":-46.7703387,"Period":{"From":"09:00:00","To":"22:00:00","Descarga":60,"Hours":13}},"Rua Salvador Branco de Andrade, 182 - Jardim Sao Miguel":{"Name":"Senac Taboão da Serra","Endereco":"Rua Salvador Branco de Andrade, 182 - Jardim Sao Miguel","Latitude":-23.6127286,"Longitude":-46.772316,"Period":{"From":"09:00:00","To":"18:00:00","Descarga":20,"Hours":9}},"Av. Dr. Adolpho Pinto, 109 - Barra Funda, São Paulo - SP":{"Name":"Uninove Barra Funda","Endereco":"Av. Dr. Adolpho Pinto, 109 - Barra Funda, São Paulo - SP","Latitude":-23.5295747,"Longitude":-46.6659155,"Period":{"From":"08:00:00","To":"23:00:00","Descarga":90,"Hours":15}},"Av. Miguel Estefno, 3031 - Vila Água Funda, São Paulo - SP":{"Name":"Jardim Botânico de São Paulo","Endereco":"Av. Miguel Estefno, 3031 - Vila Água Funda, São Paulo - SP","Latitude":-23.6379891,"Longitude":-46.627272800000007,"Period":{"From":"09:00:00","To":"17:00:00","Descarga":10,"Hours":8}},"R. Itauna, 74 - Vila Maria Baixa, São Paulo - SP":{"Name":"Uninove Vila Maria Baixa","Endereco":"R. Itauna, 74 - Vila Maria Baixa, São Paulo - SP","Latitude":-23.5206932,"Longitude":-46.5943184,"Period":{"From":"08:00:00","To":"23:00:00","Descarga":90,"Hours":15}},"Av. Guarapiranga, 752 - Socorro, São Paulo - SP":{"Name":"Extra Guarapiranga","Endereco":"Av. Guarapiranga, 752 - Socorro, São Paulo - SP","Latitude":-23.665996,"Longitude":-46.7193228,"Period":{"From":"09:00:00","To":"22:00:00","Descarga":60,"Hours":13}},"Av. Jorn. Roberto Marinho, 85 - Cidade Monções, São Paulo - SP":{"Name":"Pte. Estaiada","Endereco":"Av. Jorn. Roberto Marinho, 85 - Cidade Monções, São Paulo - SP","Latitude":-23.6118128,"Longitude":-46.6970663,"Period":{"From":"00:00:00","To":"23:59:00","Descarga":10,"Hours":23}},"R. Antônio Cardoso Nogueira, 539 - Vila Chica Luisa, São Paulo - SP":{"Name":"Parque Estadual do Jaraguá","Endereco":"R. Antônio Cardoso Nogueira, 539 - Vila Chica Luisa, São Paulo - SP","Latitude":-23.4590231,"Longitude":-46.7553369,"Period":{"From":"07:00:00","To":"17:00:00","Descarga":10,"Hours":10}},"Av. Miguel Estefno, 4241 - Vila Santo Estefano, São Paulo - SP":{"Name":"Zoológico De Sao Paulo","Endereco":"Av. Miguel Estefno, 4241 - Vila Santo Estefano, São Paulo - SP","Latitude":-23.6490558,"Longitude":-46.6222065,"Period":{"From":"09:00:00","To":"19:00:00","Descarga":10,"Hours":10}},"Av. José Maria Whitaker, 81 - Jardim Paulista, São Paulo - SP":{"Name":"McDonald's José Maria","Endereco":"Av. José Maria Whitaker, 81 - Jardim Paulista, São Paulo - SP","Latitude":-23.6021924,"Longitude":-46.6503355,"Period":{"From":"09:00:00","To":"21:00:00","Descarga":40,"Hours":12}},"Av. Eng. Eusébio Stevaux, 823 - Santo Amaro":{"Name":"Senac Nacões Unidas","Endereco":"Av. Eng. Eusébio Stevaux, 823 - Santo Amaro","Latitude":-23.669369,"Longitude":-46.700551,"Period":{"From":"736654.09:00:00","To":"00:00:00","Descarga":0,"Hours":-9}},"R. Nossa Sra. das Mercês, 29 - Vila das Merces, São Paulo - SP":{"Name":"Extra Nossa Sra.","Endereco":"R. Nossa Sra. das Mercês, 29 - Vila das Merces, São Paulo - SP","Latitude":-23.6179022,"Longitude":-46.6102096,"Period":{"From":"09:00:00","To":"22:00:00","Descarga":60,"Hours":13}},"Rua Henrique Schaumann, 80/124 - Cerqueira César, São Paulo - SP":{"Name":"McDonald's Henrique Schaumann","Endereco":"Rua Henrique Schaumann, 80/124 - Cerqueira César, São Paulo - SP","Latitude":-23.5632397,"Longitude":-46.6780061,"Period":{"From":"09:00:00","To":"23:00:00","Descarga":40,"Hours":14}},"R. João Cachoeira, 899 - Itaim Bibi, São Paulo - SP":{"Name":"Extra Itaim Bibi","Endereco":"R. João Cachoeira, 899 - Itaim Bibi, São Paulo - SP","Latitude":-23.587866,"Longitude":-46.6762159,"Period":{"From":"06:00:00","To":"22:00:00","Descarga":60,"Hours":16}},"Praça da Sé - Sé, São Paulo - SP":{"Name":"Catedral Metropolitana de São Paulo","Endereco":"Praça da Sé - Sé, São Paulo - SP","Latitude":-23.5502784,"Longitude":-46.6342179,"Period":{"From":"00:00:00","To":"23:59:00","Descarga":10,"Hours":23}},"R. João Batista de Oliveira, 47 - Centro, Taboão da Serra - SP":{"Name":"Extra Taboão","Endereco":"R. João Batista de Oliveira, 47 - Centro, Taboão da Serra - SP","Latitude":-23.6092215,"Longitude":-46.7527367,"Period":{"From":"09:00:00","To":"22:00:00","Descarga":60,"Hours":13}},"Pq. Dom Pedro II - Av. Mercúrio, s/n - Brás, São Paulo - SP":{"Name":"Museu Catavento","Endereco":"Pq. Dom Pedro II - Av. Mercúrio, s/n - Brás, São Paulo - SP","Latitude":-23.5439053,"Longitude":-46.627728,"Period":{"From":"09:00:00","To":"16:00:00","Descarga":10,"Hours":7}},"Av. Olavo Fontoura, 1209 - Santana, São Paulo - SP":{"Name":"Anhembi Sambadrome","Endereco":"Av. Olavo Fontoura, 1209 - Santana, São Paulo - SP","Latitude":-23.5157253,"Longitude":-46.6404566,"Period":{"From":"07:00:00","To":"17:00:00","Descarga":10,"Hours":10}},"Av. Pedro Álvares Cabral - Vila Mariana, São Paulo - SP":{"Name":"Parque Ibirapuera","Endereco":"Av. Pedro Álvares Cabral - Vila Mariana, São Paulo - SP","Latitude":-23.5872556,"Longitude":-46.6524852,"Period":{"From":"05:00:00","To":"23:59:00","Descarga":10,"Hours":18}},"R. Huet Bacelar, 407 - Ipiranga, São Paulo - SP":{"Name":"Aquário de São Paulo","Endereco":"R. Huet Bacelar, 407 - Ipiranga, São Paulo - SP","Latitude":-23.5936639,"Longitude":-46.6157596,"Period":{"From":"09:00:00","To":"17:00:00","Descarga":10,"Hours":8}},"R. Dante Batiston, 248 - Centro":{"Name":"Senac Osasco","Endereco":"R. Dante Batiston, 248 - Centro","Latitude":-23.532311,"Longitude":-46.777797,"Period":{"From":"12:00:00","To":"15:00:00","Descarga":20,"Hours":3}},"R. Pamplona, 734 - Jardim Paulista, São Paulo - SP":{"Name":"McDonald","Endereco":"R. Pamplona, 734 - Jardim Paulista, São Paulo - SP","Latitude":-23.5643578,"Longitude":-46.6546841,"Period":{"From":"736654.09:00:00","To":"00:00:00","Descarga":0,"Hours":-9}},"Av. Sen. Teotônio Vilela, 2926 - Jardim Iporanga, São Paulo - SP":{"Name":"Extra Jardim Iporanga","Endereco":"Av. Sen. Teotônio Vilela, 2926 - Jardim Iporanga, São Paulo - SP","Latitude":-23.726241,"Longitude":-46.700789099999987,"Period":{"From":"09:00:00","To":"22:00:00","Descarga":60,"Hours":13}},"Avenida Washignton Luís, 5859 - Jd. Aeroporto, São Paulo - SP":{"Name":"Extra Aeroporto","Endereco":"Avenida Washignton Luís, 5859 - Jd. Aeroporto, São Paulo - SP","Latitude":-23.6285483,"Longitude":-46.6675152,"Period":{"From":"09:00:00","To":"22:00:00","Descarga":60,"Hours":13}},"R. Dr. Antônio Bento, 393 - Santo Amaro":{"Name":"Senac Largo Treze","Endereco":"R. Dr. Antônio Bento, 393 - Santo Amaro","Latitude":-23.6471254,"Longitude":-46.7038018,"Period":{"From":"09:00:00","To":"12:00:00","Descarga":20,"Hours":3}},"Pç. Pateo do Collegio, 2 - Centro, São Paulo - SP":{"Name":"Pateo do Collegio","Endereco":"Pç. Pateo do Collegio, 2 - Centro, São Paulo - SP","Latitude":-23.5479632,"Longitude":-46.632791999999988,"Period":{"From":"09:00:00","To":"16:30:00","Descarga":10,"Hours":7}},"R. Dante Batiston, 87 - Centro, Osasco - SP":{"Name":"Uninove Osasco","Endereco":"R. Dante Batiston, 87 - Centro, Osasco - SP","Latitude":-23.5331296,"Longitude":-46.7762948,"Period":{"From":"08:00:00","To":"23:00:00","Descarga":90,"Hours":15}},"Rua do Orfanato, 316 - Vila Prudente":{"Name":"Senac Vila Prudente","Endereco":"Rua do Orfanato, 316 - Vila Prudente","Latitude":-23.5802639,"Longitude":-46.5821721,"Period":{"From":"09:00:00","To":"17:00:00","Descarga":20,"Hours":8}},"Av. Paulista, 2355 - Bela Vista, São Paulo - SP":{"Name":"Hotel Ibis São Paulo Paulista","Endereco":"Av. Paulista, 2355 - Bela Vista, São Paulo - SP","Latitude":-23.5571536,"Longitude":-46.662084100000008,"Period":{"From":"736654.09:00:00","To":"00:00:00","Descarga":0,"Hours":-9}}}